[
  {
    "id": "cafe-kitsune",
    "name": "Café Kitsuné – Palais Royal",
    "category": "Café",
    "type": "certified",
    "coordinates": [48.86359, 2.33649],
    "image": "https://images.unsplash.com/photo-1554118811-1e0d58224f24?w=400",
    "senses": {
      "light": 70,
      "sound": 40,
      "crowd": 50
    }
  },
  {
    "id": "cafe-nuances",
    "name": "Café Nuances – Opéra",
    "category": "Café",
    "type": "regular",
    "coordinates": [48.87096, 2.33304],
    "image": "https://images.unsplash.com/photo-1501339847302-ac426a4a7cbb?w=400",
    "senses": {
      "light": 60,
      "sound": 50,
      "crowd": 60
    }
  },
  {
    "id": "cafe-institut-suedois",
    "name": "Café de l'Institut Suédois",
    "category": "Café",
    "type": "certified",
    "coordinates": [48.85749, 2.36058],
    "image": "https://images.unsplash.com/photo-1445116572660-236099ec97a0?w=400",
    "senses": {
      "light": 80,
      "sound": 30,
      "crowd": 40
    }
  },
  {
    "id": "ohp-cafe",
    "name": "O/HP Café – Hôtel des Provinces",
    "category": "Café",
    "type": "regular",
    "coordinates": [48.87103, 2.34812],
    "image": "https://images.unsplash.com/photo-1559305616-3e7a6c1c7e8a?w=400",
    "senses": {
      "light": 75,
      "sound": 35,
      "crowd": 45
    }
  },
  {
    "id": "serres-auteuil",
    "name": "Serres d'Auteuil",
    "category": "Parc",
    "type": "certified",
    "coordinates": [48.84724, 2.25258],
    "image": "https://images.unsplash.com/photo-1585320806297-9794b3e4eeae?w=400",
    "senses": {
      "light": 90,
      "sound": 20,
      "crowd": 30
    }
  },
  {
    "id": "square-vert-galant",
    "name": "Square du Vert-Galant",
    "category": "Parc",
    "type": "regular",
    "coordinates": [48.85716, 2.34282],
    "image": "https://images.unsplash.com/photo-1519331379826-f10be5486c6f?w=400",
    "senses": {
      "light": 85,
      "sound": 25,
      "crowd": 55
    }
  },
  {
    "id": "jardin-musee-vie-romantique",
    "name": "Jardin du Musée de la Vie Romantique",
    "category": "Parc",
    "type": "certified",
    "coordinates": [48.88209, 2.3331],
    "image": "https://images.unsplash.com/photo-1580587771525-78b9dba3b914?w=400",
    "senses": {
      "light": 80,
      "sound": 15,
      "crowd": 25
    }
  },
  {
    "id": "jardin-luxembourg",
    "name": "Jardin du Luxembourg – zones latérales",
    "category": "Parc",
    "type": "regular",
    "coordinates": [48.84622, 2.33716],
    "image": "https://images.unsplash.com/photo-1524935655608-984daf191d1d?w=400",
    "senses": {
      "light": 85,
      "sound": 30,
      "crowd": 65
    }
  },
  {
    "id": "musee-zadkine",
    "name": "Musée Zadkine",
    "category": "Musée",
    "type": "certified",
    "coordinates": [48.84217, 2.32938],
    "image": "https://images.unsplash.com/photo-1565374773071-8bbf25a36d8e?w=400",
    "senses": {
      "light": 60,
      "sound": 10,
      "crowd": 20
    }
  },
  {
    "id": "musee-vie-romantique",
    "name": "Musée de la Vie Romantique",
    "category": "Musée",
    "type": "certified",
    "coordinates": [48.8823, 2.33335],
    "image": "https://images.unsplash.com/photo-1564399579883-451a5d44ec08?w=400",
    "senses": {
      "light": 55,
      "sound": 15,
      "crowd": 25
    }
  },
  {
    "id": "musee-orangerie",
    "name": "Musée de l'Orangerie",
    "category": "Musée",
    "type": "regular",
    "coordinates": [48.86379, 2.32263],
    "image": "https://images.unsplash.com/photo-1578321272176-b7bbc0679853?w=400",
    "senses": {
      "light": 50,
      "sound": 20,
      "crowd": 70
    }
  },
  {
    "id": "musee-guimet",
    "name": "Musée Guimet",
    "category": "Musée",
    "type": "certified",
    "coordinates": [48.8651, 2.29302],
    "image": "https://images.unsplash.com/photo-1582555172866-f73bb12a2ab3?w=400",
    "senses": {
      "light": 45,
      "sound": 25,
      "crowd": 50
    }
  },
  {
    "id": "bibliotheque-forney",
    "name": "Bibliothèque Forney",
    "category": "Bibliothèque",
    "type": "regular",
    "coordinates": [48.85692, 2.36259],
    "image": "https://images.unsplash.com/photo-1521587760476-6c12a4b040da?w=400",
    "senses": {
      "light": 65,
      "sound": 10,
      "crowd": 30
    }
  },
  {
    "id": "mediatheque-yourcenar",
    "name": "Médiathèque Marguerite Yourcenar",
    "category": "Bibliothèque",
    "type": "certified",
    "coordinates": [48.84361, 2.40907],
    "image": "https://images.unsplash.com/photo-1507842217343-583bb7270b66?w=400",
    "senses": {
      "light": 70,
      "sound": 5,
      "crowd": 35
    }
  },
  {
    "id": "mediatheque-sagan",
    "name": "Médiathèque Françoise Sagan",
    "category": "Bibliothèque",
    "type": "regular",
    "coordinates": [48.88052, 2.36327],
    "image": "https://images.unsplash.com/photo-1524995997946-a1c2e315a42f?w=400",
    "senses": {
      "light": 75,
      "sound": 8,
      "crowd": 40
    }
  },
  {
    "id": "bibliotheque-sainte-genevieve",
    "name": "Bibliothèque Sainte-Geneviève",
    "category": "Bibliothèque",
    "type": "certified",
    "coordinates": [48.84679, 2.3431],
    "image": "https://images.unsplash.com/photo-1481627834876-b7833e8f5570?w=400",
    "senses": {
      "light": 60,
      "sound": 5,
      "crowd": 50
    }
  },
  {
    "id": "le-tres-particulier",
    "name": "Le Très Particulier – Montmartre",
    "category": "Bar",
    "type": "certified",
    "coordinates": [48.88558, 2.33322],
    "image": "https://images.unsplash.com/photo-1470337458703-46ad1756a187?w=400",
    "senses": {
      "light": 40,
      "sound": 45,
      "crowd": 55
    }
  },
  {
    "id": "sherry-butt",
    "name": "Sherry Butt – Marais",
    "category": "Bar",
    "type": "regular",
    "coordinates": [48.85863, 2.35811],
    "image": "https://images.unsplash.com/photo-1566417713940-fe7c737a9ef2?w=400",
    "senses": {
      "light": 35,
      "sound": 55,
      "crowd": 65
    }
  },
  {
    "id": "le-lavomatic",
    "name": "Le Lavomatic",
    "category": "Bar",
    "type": "certified",
    "coordinates": [48.86442, 2.35037],
    "image": "https://images.unsplash.com/photo-1543007630-9710e4a00a20?w=400",
    "senses": {
      "light": 30,
      "sound": 60,
      "crowd": 70
    }
  },
  {
    "id": "kimpton-bar",
    "name": "Kimpton Bar",
    "category": "Bar",
    "type": "regular",
    "coordinates": [48.8693, 2.33169],
    "image": "https://images.unsplash.com/photo-1572116469696-31de0f17cc34?w=400",
    "senses": {
      "light": 45,
      "sound": 50,
      "crowd": 60
    }
  },
  {
    "id": "chez-vong",
    "name": "Chez Vong",
    "category": "Restaurant",
    "type": "regular",
    "coordinates": [48.8616, 2.34619],
    "image": "https://images.unsplash.com/photo-1552566626-52f8b828add9?w=400",
    "senses": {
      "light": 50,
      "sound": 55,
      "crowd": 65
    }
  },
  {
    "id": "sola",
    "name": "Sola",
    "category": "Restaurant",
    "type": "certified",
    "coordinates": [48.84868, 2.33223],
    "image": "https://images.unsplash.com/photo-1517248135467-4c7edcad34c4?w=400",
    "senses": {
      "light": 55,
      "sound": 40,
      "crowd": 50
    }
  },
  {
    "id": "noura-montparnasse",
    "name": "Noura – Montparnasse",
    "category": "Restaurant",
    "type": "regular",
    "coordinates": [48.84199, 2.32492],
    "image": "https://images.unsplash.com/photo-1414235077428-338989a2e8c0?w=400",
    "senses": {
      "light": 60,
      "sound": 50,
      "crowd": 60
    }
  },
  {
    "id": "la-matta",
    "name": "La Matta",
    "category": "Restaurant",
    "type": "certified",
    "coordinates": [48.8787, 2.33462],
    "image": "https://images.unsplash.com/photo-1466978913421-dad2ebd01d17?w=400",
    "senses": {
      "light": 65,
      "sound": 45,
      "crowd": 55
    }
  },
  {
    "id": "arome-16e",
    "name": "Arome – 16ᵉ",
    "category": "Lieu recommandé",
    "type": "certified",
    "coordinates": [48.87161, 2.30721],
    "image": "https://images.unsplash.com/photo-1550966871-3ed3cdb5ed0c?w=400",
    "senses": {
      "light": 70,
      "sound": 35,
      "crowd": 45
    }
  },
  {
    "id": "parc-buttes-chapeau-rouge",
    "name": "Parc des Buttes du Chapeau Rouge",
    "category": "Lieu recommandé",
    "type": "regular",
    "coordinates": [48.88361, 2.38771],
    "image": "https://images.unsplash.com/photo-1519331379826-f10be5486c6f?w=400",
    "senses": {
      "light": 85,
      "sound": 20,
      "crowd": 35
    }
  },
  {
    "id": "musee-bourdelle",
    "name": "Musée Bourdelle",
    "category": "Lieu recommandé",
    "type": "certified",
    "coordinates": [48.83919, 2.30803],
    "image": "https://images.unsplash.com/photo-1536924940846-227afb31e2a5?w=400",
    "senses": {
      "light": 55,
      "sound": 15,
      "crowd": 30
    }
  },
  {
    "id": "bibliotheque-cite-sciences",
    "name": "Bibliothèque Cité des Sciences",
    "category": "Lieu recommandé",
    "type": "regular",
    "coordinates": [48.89669, 2.38806],
    "image": "https://images.unsplash.com/photo-1568667256549-094345857637?w=400",
    "senses": {
      "light": 75,
      "sound": 10,
      "crowd": 45
    }
  },
  {
    "id": "bar-bibliotheque-saint-germain",
    "name": "Bar Bibliothèque – Saint-Germain",
    "category": "Lieu recommandé",
    "type": "certified",
    "coordinates": [48.85202, 2.33609],
    "image": "https://images.unsplash.com/photo-1509669803555-fd5d83d7c9ca?w=400",
    "senses": {
      "light": 50,
      "sound": 40,
      "crowd": 50
    }
  }
]
